name_ru,name_en,name_kz,coordinates,address_ru,address_en,address_kz,latitude,longitude
Центр Матери И Ребенка,Mother And Child Care Center,Ана Мен Бала Орталығы,"49.89817984717693, 82.60665478225198","ул. Утепова, 37",37 Utepov St,"Өтепов к-сі, 37",49.89817984717693,82.60665478225198
Роддом,Maternity Hospital,Перзентхана,"49.901845698559214, 82.60969163327003","ул. Утепова, 35",35 Utepov Street,Өтепов көшесі 35,49.901845698559214,82.60969163327003
Восточно-Казахстанская Областная Больница,East Kazakhstan Regional Hospital,Шығыс Қазақстан Облыстық Ауруханасы,"49.95017403861715, 82.61523796506226",Проспект Ауэзова 26,Auezov Ave 26,"Әуезов даңғылы, 26",49.95017403861715,82.61523796506226
Восточно-Казахстанская Областная Больница,East Kazakhstan Regional Hospital,Шығыс Қазақстан Облыстық Ауруханасы,"49.95943015056475, 82.63096685047424",ул. Протозанова 7,Protozanov St 7,"Протозанов көшесі, 7",49.95943015056475,82.63096685047424
Городская Больница №4,City Hospital No. 4,№4 Қалалық Аурухана,"49.96094389538946, 82.6005003006335",Улица Серикбаева 1/1,Serikbaeva Street 1/1,Серікбаев көшесі 1/1,49.96094389538946,82.6005003006335
Городская Больница №3,City Hospital No. 3,№3 Қалалық Аурухана,"49.95377174799381, 82.58374917736242","ул. Серикбаева, 47","Serikbaev st., 47"," Серікбаев к-сі, 47",49.95377174799381,82.58374917736242
Больница,Hospital,Аурухана,"49.95471897866841, 82.60804828167655",ул. Астана 16-18,Astana St 16-18,Астана көшесі 16-18,49.95471897866841,82.60804828167655
Первая Городская Больница,First City Hospital,Бірінші Қалалық Аурухана,"49.96517257155902, 82.61675969375366",Проспект Абая 18,Abay Ave 18,Абай даңғылы 18,49.96517257155902,82.61675969375366
